[
    {
        "id": 0,
        "name": "Balmoral Castle",
        "location": {
            "lat": 57.04083333,
            "lng": -3.23
        },
        "iso": "GBR"
    },
    {
        "id": 1,
        "name": "Edinburgh",
        "location": {
            "lat": 55.95305556,
            "lng": -3.18888889
        },
        "iso": "GBR"
    },
    {
        "id": 2,
        "name": "Gallipoli",
        "location": {
            "lat": 40.35,
            "lng": 26.46666667
        },
        "iso": "TUR"
    },
    {
        "id": 3,
        "name": "Hradčany",
        "location": {
            "lat": 50.08944444,
            "lng": 14.39722222
        },
        "iso": "CZE"
    },
    {
        "id": 4,
        "name": "Kenilworth Castle",
        "location": {
            "lat": 52.3468,
            "lng": -1.5913
        },
        "iso": "GBR"
    },
    {
        "id": 5,
        "name": "Knaresborough Castle",
        "location": {
            "lat": 54.00719,
            "lng": -1.46932
        },
        "iso": "GBR"
    },
    {
        "id": 6,
        "name": "Quedlinburg",
        "location": {
            "lat": 51.79166667,
            "lng": 11.14722222
        },
        "iso": "DEU"
    },
    {
        "id": 7,
        "name": "Kronborg",
        "location": {
            "lat": 56.03888889,
            "lng": 12.62083333
        },
        "iso": "unknown"
    },
    {
        "id": 8,
        "name": "Peckforton Castle",
        "location": {
            "lat": 53.1175,
            "lng": -2.699
        },
        "iso": "GBR"
    },
    {
        "id": 9,
        "name": "Newcastle, New South Wales",
        "location": {
            "lat": -32.91666667,
            "lng": 151.75
        },
        "iso": "AUS"
    },
    {
        "id": 10,
        "name": "Palace of Versailles",
        "location": {
            "lat": 48.8048,
            "lng": 2.1203
        },
        "iso": "FRA"
    },
    {
        "id": 11,
        "name": "Douglas County, Colorado",
        "location": {
            "lat": 39.35,
            "lng": -104.93
        },
        "iso": "USA"
    },
    {
        "id": 12,
        "name": "Castle Rock, Colorado",
        "location": {
            "lat": 39.376089,
            "lng": -104.853487
        },
        "iso": "USA"
    },
    {
        "id": 13,
        "name": "Luxembourg City",
        "location": {
            "lat": 49.6106,
            "lng": 6.1328
        },
        "iso": "LUX"
    },
    {
        "id": 14,
        "name": "County Kilkenny",
        "location": {
            "lat": 52.58333333,
            "lng": -7.25
        },
        "iso": "IRL"
    },
    {
        "id": 15,
        "name": "Edinburgh Castle",
        "location": {
            "lat": 55.948611,
            "lng": -3.200833
        },
        "iso": "GBR"
    },
    {
        "id": 16,
        "name": "Hever Castle",
        "location": {
            "lat": 51.18722222,
            "lng": 0.11416667
        },
        "iso": "GBR"
    },
    {
        "id": 17,
        "name": "Osborne House",
        "location": {
            "lat": 50.75055556,
            "lng": -1.26972222
        },
        "iso": "GBR"
    },
    {
        "id": 18,
        "name": "Leeds Castle",
        "location": {
            "lat": 51.24805556,
            "lng": 0.62888889
        },
        "iso": "GBR"
    },
    {
        "id": 19,
        "name": "Crotone",
        "location": {
            "lat": 39.08333333,
            "lng": 17.11666667
        },
        "iso": "unknown"
    },
    {
        "id": 20,
        "name": "Château d'Amboise",
        "location": {
            "lat": 47.41305556,
            "lng": 0.98583333
        },
        "iso": "FRA"
    },
    {
        "id": 21,
        "name": "Château de Cheverny",
        "location": {
            "lat": 47.50027778,
            "lng": 1.45805556
        },
        "iso": "FRA"
    },
    {
        "id": 22,
        "name": "Château de Chenonceau",
        "location": {
            "lat": 47.325,
            "lng": 1.0706
        },
        "iso": "FRA"
    },
    {
        "id": 23,
        "name": "Château d'Angers",
        "location": {
            "lat": 47.47,
            "lng": -0.56
        },
        "iso": "FRA"
    },
    {
        "id": 24,
        "name": "Bellver Castle",
        "location": {
            "lat": 39.56375,
            "lng": 2.619338
        },
        "iso": "unknown"
    },
    {
        "id": 25,
        "name": "New Castle County, Delaware",
        "location": {
            "lat": 39.58,
            "lng": -75.64
        },
        "iso": "USA"
    },
    {
        "id": 26,
        "name": "Château de Chambord",
        "location": {
            "lat": 47.616342,
            "lng": 1.516962
        },
        "iso": "FRA"
    },
    {
        "id": 27,
        "name": "Roscommon",
        "location": {
            "lat": 53.6333,
            "lng": -8.1833
        },
        "iso": "IRL"
    },
    {
        "id": 28,
        "name": "Rockcastle County, Kentucky",
        "location": {
            "lat": 37.36,
            "lng": -84.32
        },
        "iso": "USA"
    },
    {
        "id": 29,
        "name": "Henry County, Indiana",
        "location": {
            "lat": 39.93,
            "lng": -85.4
        },
        "iso": "USA"
    },
    {
        "id": 30,
        "name": "Dunstanburgh Castle",
        "location": {
            "lat": 55.4911,
            "lng": -1.5932
        },
        "iso": "unknown"
    },
    {
        "id": 31,
        "name": "Burgh Castle",
        "location": {
            "lat": 52.58547,
            "lng": 1.65365
        },
        "iso": "unknown"
    },
    {
        "id": 32,
        "name": "Middelburg",
        "location": {
            "lat": 51.5,
            "lng": 3.61666667
        },
        "iso": "NLD"
    },
    {
        "id": 33,
        "name": "Alkmaar",
        "location": {
            "lat": 52.63333333,
            "lng": 4.75
        },
        "iso": "NLD"
    },
    {
        "id": 34,
        "name": "Castle Tower National Park",
        "location": {
            "lat": -24.1575,
            "lng": 151.30694444
        },
        "iso": "AUS"
    },
    {
        "id": 35,
        "name": "Castle Pines, Colorado",
        "location": {
            "lat": 39.462512,
            "lng": -104.87062
        },
        "iso": "USA"
    },
    {
        "id": 36,
        "name": "New Castle, Colorado",
        "location": {
            "lat": 39.57222222,
            "lng": -107.535
        },
        "iso": "USA"
    },
    {
        "id": 37,
        "name": "New Castle, Delaware",
        "location": {
            "lat": 39.66194444,
            "lng": -75.56638889
        },
        "iso": "USA"
    },
    {
        "id": 38,
        "name": "Pine Castle, Florida",
        "location": {
            "lat": 28.46833333,
            "lng": -81.375
        },
        "iso": "USA"
    },
    {
        "id": 39,
        "name": "New Castle, Indiana",
        "location": {
            "lat": 39.92361111,
            "lng": -85.365
        },
        "iso": "USA"
    },
    {
        "id": 40,
        "name": "Greencastle, Indiana",
        "location": {
            "lat": 39.64222222,
            "lng": -86.85611111
        },
        "iso": "USA"
    },
    {
        "id": 41,
        "name": "Middleham Castle",
        "location": {
            "lat": 54.284065,
            "lng": -1.8069
        },
        "iso": "GBR"
    },
    {
        "id": 42,
        "name": "Castle Howard",
        "location": {
            "lat": 54.12138889,
            "lng": -0.90583333
        },
        "iso": "GBR"
    },
    {
        "id": 43,
        "name": "Arundel Castle",
        "location": {
            "lat": 50.85611111,
            "lng": -0.55361111
        },
        "iso": "GBR"
    },
    {
        "id": 44,
        "name": "Castle Rising Castle",
        "location": {
            "lat": 52.7928,
            "lng": 0.4689
        },
        "iso": "GBR"
    },
    {
        "id": 45,
        "name": "Cardiff Castle",
        "location": {
            "lat": 51.4824,
            "lng": -3.1837
        },
        "iso": "GBR"
    },
    {
        "id": 46,
        "name": "New Castle, Kentucky",
        "location": {
            "lat": 38.43361111,
            "lng": -85.16944444
        },
        "iso": "USA"
    },
    {
        "id": 47,
        "name": "White Castle, Louisiana",
        "location": {
            "lat": 30.16861111,
            "lng": -91.14666667
        },
        "iso": "USA"
    },
    {
        "id": 48,
        "name": "Castle Hill, Maine",
        "location": {
            "lat": 46.71805556,
            "lng": -68.22055556
        },
        "iso": "USA"
    },
    {
        "id": 49,
        "name": "Newcastle, Maine",
        "location": {
            "lat": 44.035,
            "lng": -69.53666667
        },
        "iso": "USA"
    },
    {
        "id": 50,
        "name": "Chillum, Maryland",
        "location": {
            "lat": 38.96833333,
            "lng": -76.97916667
        },
        "iso": "USA"
    },
    {
        "id": 51,
        "name": "Laketown Township, Michigan",
        "location": {
            "lat": 42.72722222,
            "lng": -86.16777778
        },
        "iso": "USA"
    },
    {
        "id": 52,
        "name": "Castle Rock Township, Dakota County, Minnesota",
        "location": {
            "lat": 44.58,
            "lng": -93.10583333
        },
        "iso": "USA"
    },
    {
        "id": 53,
        "name": "Medemblik",
        "location": {
            "lat": 52.68333333,
            "lng": 5.03333333
        },
        "iso": "NLD"
    },
    {
        "id": 54,
        "name": "Greencastle, Missouri",
        "location": {
            "lat": 40.26166667,
            "lng": -92.87972222
        },
        "iso": "USA"
    },
    {
        "id": 55,
        "name": "Newcastle, Nebraska",
        "location": {
            "lat": 42.65194444,
            "lng": -96.87527778
        },
        "iso": "USA"
    },
    {
        "id": 56,
        "name": "Castle Point, Missouri",
        "location": {
            "lat": 38.75583333,
            "lng": -90.24833333
        },
        "iso": "USA"
    },
    {
        "id": 57,
        "name": "New Castle, New Hampshire",
        "location": {
            "lat": 43.07222222,
            "lng": -70.71611111
        },
        "iso": "USA"
    },
    {
        "id": 58,
        "name": "Barnard Castle",
        "location": {
            "lat": 54.55,
            "lng": -1.92
        },
        "iso": "GBR"
    },
    {
        "id": 59,
        "name": "Hoboken, New Jersey",
        "location": {
            "lat": 40.75,
            "lng": -74.03
        },
        "iso": "USA"
    },
    {
        "id": 60,
        "name": "Bolingbroke Castle",
        "location": {
            "lat": 53.16414,
            "lng": 0.01638
        },
        "iso": "GBR"
    },
    {
        "id": 61,
        "name": "Kimbolton Castle",
        "location": {
            "lat": 52.2964,
            "lng": -0.3884
        },
        "iso": "GBR"
    },
    {
        "id": 62,
        "name": "Pembroke Castle",
        "location": {
            "lat": 51.677678,
            "lng": -4.920694
        },
        "iso": "GBR"
    },
    {
        "id": 63,
        "name": "Kilpeck",
        "location": {
            "lat": 51.9697,
            "lng": -2.81
        },
        "iso": "GBR"
    },
    {
        "id": 64,
        "name": "Brass Castle, New Jersey",
        "location": {
            "lat": 40.763125,
            "lng": -75.026248
        },
        "iso": "USA"
    },
    {
        "id": 65,
        "name": "Oneida Castle, New York",
        "location": {
            "lat": 43.07833333,
            "lng": -75.63333333
        },
        "iso": "USA"
    },
    {
        "id": 66,
        "name": "Lismore Castle",
        "location": {
            "lat": 52.14053389,
            "lng": -7.93410306
        },
        "iso": "IRL"
    },
    {
        "id": 67,
        "name": "New Castle, New York",
        "location": {
            "lat": 41.18527778,
            "lng": -73.76861111
        },
        "iso": "USA"
    },
    {
        "id": 68,
        "name": "North Castle, New York",
        "location": {
            "lat": 41.11222222,
            "lng": -73.71027778
        },
        "iso": "USA"
    },
    {
        "id": 69,
        "name": "Framlingham Castle",
        "location": {
            "lat": 52.22405,
            "lng": 1.34691
        },
        "iso": "GBR"
    },
    {
        "id": 70,
        "name": "Bungay Castle",
        "location": {
            "lat": 52.4553,
            "lng": 1.4367
        },
        "iso": "GBR"
    },
    {
        "id": 71,
        "name": "Castle Hayne, North Carolina",
        "location": {
            "lat": 34.35638889,
            "lng": -77.89916667
        },
        "iso": "USA"
    },
    {
        "id": 72,
        "name": "Castle, Oklahoma",
        "location": {
            "lat": 35.47527778,
            "lng": -96.38416667
        },
        "iso": "USA"
    },
    {
        "id": 73,
        "name": "Castle Shannon, Pennsylvania",
        "location": {
            "lat": 40.36583333,
            "lng": -80.01972222
        },
        "iso": "USA"
    },
    {
        "id": 74,
        "name": "Doylestown, Pennsylvania",
        "location": {
            "lat": 40.31277778,
            "lng": -75.12888889
        },
        "iso": "USA"
    },
    {
        "id": 75,
        "name": "New Castle, Pennsylvania",
        "location": {
            "lat": 40.99722222,
            "lng": -80.34444444
        },
        "iso": "USA"
    },
    {
        "id": 76,
        "name": "New Castle Northwest, Pennsylvania",
        "location": {
            "lat": 41.02138889,
            "lng": -80.35305556
        },
        "iso": "USA"
    },
    {
        "id": 77,
        "name": "South New Castle, Pennsylvania",
        "location": {
            "lat": 40.97555556,
            "lng": -80.34472222
        },
        "iso": "USA"
    },
    {
        "id": 78,
        "name": "New Castle Township, Schuylkill County, Pennsylvania",
        "location": {
            "lat": 40.75166667,
            "lng": -76.25805556
        },
        "iso": "USA"
    },
    {
        "id": 79,
        "name": "Castle Hills, Texas",
        "location": {
            "lat": 29.52166667,
            "lng": -98.51666667
        },
        "iso": "USA"
    },
    {
        "id": 80,
        "name": "Castle Dale, Utah",
        "location": {
            "lat": 39.21583333,
            "lng": -111.02083333
        },
        "iso": "USA"
    },
    {
        "id": 81,
        "name": "Castle Valley, Utah",
        "location": {
            "lat": 38.63444444,
            "lng": -109.41055556
        },
        "iso": "USA"
    },
    {
        "id": 82,
        "name": "New Castle, Virginia",
        "location": {
            "lat": 37.50083333,
            "lng": -80.11083333
        },
        "iso": "USA"
    },
    {
        "id": 83,
        "name": "Castle Rock, Washington",
        "location": {
            "lat": 46.27388889,
            "lng": -122.905
        },
        "iso": "USA"
    },
    {
        "id": 84,
        "name": "Castle Rock, Wisconsin",
        "location": {
            "lat": 43.07333333,
            "lng": -90.49638889
        },
        "iso": "USA"
    },
    {
        "id": 85,
        "name": "Newcastle, Wyoming",
        "location": {
            "lat": 43.85305556,
            "lng": -104.20944444
        },
        "iso": "USA"
    },
    {
        "id": 86,
        "name": "Castle Douglas",
        "location": {
            "lat": 54.941,
            "lng": -3.929
        },
        "iso": "GBR"
    },
    {
        "id": 87,
        "name": "Castle Espie",
        "location": {
            "lat": 54.52935,
            "lng": -5.6981
        },
        "iso": "GBR"
    },
    {
        "id": 88,
        "name": "Alnwick Castle",
        "location": {
            "lat": 55.41575,
            "lng": -1.70607
        },
        "iso": "unknown"
    },
    {
        "id": 89,
        "name": "Blenheim Palace",
        "location": {
            "lat": 51.84194444,
            "lng": -1.36138889
        },
        "iso": "GBR"
    },
    {
        "id": 90,
        "name": "Sizergh Castle and Garden",
        "location": {
            "lat": 54.28444444,
            "lng": -2.77194444
        },
        "iso": "GBR"
    },
    {
        "id": 91,
        "name": "Lancaster Castle",
        "location": {
            "lat": 54.04981,
            "lng": -2.80562
        },
        "iso": "GBR"
    },
    {
        "id": 92,
        "name": "Bolsover Castle",
        "location": {
            "lat": 53.23138889,
            "lng": -1.29694444
        },
        "iso": "GBR"
    },
    {
        "id": 93,
        "name": "Edlingham Castle",
        "location": {
            "lat": 55.379,
            "lng": -1.82
        },
        "iso": "GBR"
    },
    {
        "id": 94,
        "name": "Bass Rock",
        "location": {
            "lat": 56.0769,
            "lng": -2.641
        },
        "iso": "unknown"
    },
    {
        "id": 95,
        "name": "Wartburg",
        "location": {
            "lat": 50.9662,
            "lng": 10.3065
        },
        "iso": "DEU"
    },
    {
        "id": 96,
        "name": "Tattershall Castle, Lincolnshire",
        "location": {
            "lat": 53.10133333,
            "lng": -0.19261111
        },
        "iso": "GBR"
    },
    {
        "id": 97,
        "name": "Dublin Castle",
        "location": {
            "lat": 53.34288611,
            "lng": -6.26742833
        },
        "iso": "IRL"
    },
    {
        "id": 98,
        "name": "Wemyss Castle",
        "location": {
            "lat": 56.1442,
            "lng": -3.0808
        },
        "iso": "GBR"
    },
    {
        "id": 99,
        "name": "Colditz Castle",
        "location": {
            "lat": 51.131,
            "lng": 12.8074
        },
        "iso": "DEU"
    },
    {
        "id": 100,
        "name": "Mow Cop Castle",
        "location": {
            "lat": 53.113,
            "lng": -2.2143
        },
        "iso": "GBR"
    },
    {
        "id": 101,
        "name": "Conisbrough Castle",
        "location": {
            "lat": 53.48416667,
            "lng": -1.22638889
        },
        "iso": "GBR"
    },
    {
        "id": 102,
        "name": "Chester Castle",
        "location": {
            "lat": 53.1853,
            "lng": -2.8923
        },
        "iso": "GBR"
    },
    {
        "id": 103,
        "name": "Damme",
        "location": {
            "lat": 51.25,
            "lng": 3.26666667
        },
        "iso": "BEL"
    },
    {
        "id": 104,
        "name": "Spiere-Helkijn",
        "location": {
            "lat": 50.71666667,
            "lng": 3.35
        },
        "iso": "BEL"
    },
    {
        "id": 105,
        "name": "Ardooie",
        "location": {
            "lat": 50.96666667,
            "lng": 3.18333333
        },
        "iso": "BEL"
    },
    {
        "id": 106,
        "name": "Wolfenbüttel",
        "location": {
            "lat": 52.16222222,
            "lng": 10.53694444
        },
        "iso": "DEU"
    },
    {
        "id": 107,
        "name": "Kruishoutem",
        "location": {
            "lat": 50.9,
            "lng": 3.51666667
        },
        "iso": "BEL"
    },
    {
        "id": 108,
        "name": "Maiden Castle, Dorset",
        "location": {
            "lat": 50.694495,
            "lng": -2.468192
        },
        "iso": "GBR"
    },
    {
        "id": 109,
        "name": "Steenokkerzeel",
        "location": {
            "lat": 50.91666667,
            "lng": 4.51666667
        },
        "iso": "BEL"
    },
    {
        "id": 110,
        "name": "Vilvoorde",
        "location": {
            "lat": 50.93333333,
            "lng": 4.41666667
        },
        "iso": "BEL"
    },
    {
        "id": 111,
        "name": "Stokesay Castle",
        "location": {
            "lat": 52.4303,
            "lng": -2.8313
        },
        "iso": "GBR"
    },
    {
        "id": 112,
        "name": "Belvoir Castle",
        "location": {
            "lat": 52.8945,
            "lng": -0.78256
        },
        "iso": "GBR"
    },
    {
        "id": 113,
        "name": "Corfe Castle (village)",
        "location": {
            "lat": 50.6385,
            "lng": -2.0573
        },
        "iso": "GBR"
    },
    {
        "id": 114,
        "name": "University College, Durham",
        "location": {
            "lat": 54.775532,
            "lng": -1.57616
        },
        "iso": "GBR"
    },
    {
        "id": 115,
        "name": "Schönbrunn Palace",
        "location": {
            "lat": 48.184516,
            "lng": 16.311865
        },
        "iso": "AUT"
    },
    {
        "id": 116,
        "name": "Leasowe",
        "location": {
            "lat": 53.414,
            "lng": -3.098
        },
        "iso": "unknown"
    },
    {
        "id": 117,
        "name": "Suomenlinna",
        "location": {
            "lat": 60.14361111,
            "lng": 24.98444444
        },
        "iso": "unknown"
    },
    {
        "id": 118,
        "name": "Sluis",
        "location": {
            "lat": 51.33333333,
            "lng": 3.48333333
        },
        "iso": "NLD"
    },
    {
        "id": 119,
        "name": "Mainau",
        "location": {
            "lat": 47.70555556,
            "lng": 9.19444444
        },
        "iso": "DEU"
    },
    {
        "id": 120,
        "name": "Gingelom",
        "location": {
            "lat": 50.75,
            "lng": 5.11666667
        },
        "iso": "BEL"
    },
    {
        "id": 121,
        "name": "Herk-de-Stad",
        "location": {
            "lat": 50.93333333,
            "lng": 5.16666667
        },
        "iso": "BEL"
    },
    {
        "id": 122,
        "name": "Nieuwerkerken",
        "location": {
            "lat": 50.86666667,
            "lng": 5.2
        },
        "iso": "BEL"
    },
    {
        "id": 123,
        "name": "Borgloon",
        "location": {
            "lat": 50.8,
            "lng": 5.33333333
        },
        "iso": "BEL"
    },
    {
        "id": 124,
        "name": "Ath",
        "location": {
            "lat": 50.61666667,
            "lng": 3.76666667
        },
        "iso": "BEL"
    },
    {
        "id": 125,
        "name": "Chièvres",
        "location": {
            "lat": 50.58333333,
            "lng": 3.8
        },
        "iso": "BEL"
    },
    {
        "id": 126,
        "name": "Courcelles, Belgium",
        "location": {
            "lat": 50.46666667,
            "lng": 4.36666667
        },
        "iso": "BEL"
    },
    {
        "id": 127,
        "name": "Fontaine-l'Évêque",
        "location": {
            "lat": 50.41666667,
            "lng": 4.31666667
        },
        "iso": "BEL"
    },
    {
        "id": 128,
        "name": "Seneffe",
        "location": {
            "lat": 50.51666667,
            "lng": 4.25
        },
        "iso": "BEL"
    },
    {
        "id": 129,
        "name": "Honnelles",
        "location": {
            "lat": 50.35,
            "lng": 3.71666667
        },
        "iso": "BEL"
    },
    {
        "id": 130,
        "name": "Momignies",
        "location": {
            "lat": 50.03333333,
            "lng": 4.16666667
        },
        "iso": "BEL"
    },
    {
        "id": 131,
        "name": "Péruwelz",
        "location": {
            "lat": 50.51666667,
            "lng": 3.58333333
        },
        "iso": "BEL"
    },
    {
        "id": 132,
        "name": "Chaumont-Gistoux",
        "location": {
            "lat": 50.67686,
            "lng": 4.71956
        },
        "iso": "BEL"
    },
    {
        "id": 133,
        "name": "Court-Saint-Étienne",
        "location": {
            "lat": 50.63333333,
            "lng": 4.56666667
        },
        "iso": "BEL"
    },
    {
        "id": 134,
        "name": "Genappe",
        "location": {
            "lat": 50.6,
            "lng": 4.45
        },
        "iso": "BEL"
    },
    {
        "id": 135,
        "name": "Grez-Doiceau",
        "location": {
            "lat": 50.73333333,
            "lng": 4.7
        },
        "iso": "BEL"
    },
    {
        "id": 136,
        "name": "Hélécine",
        "location": {
            "lat": 50.75,
            "lng": 4.98333333
        },
        "iso": "BEL"
    },
    {
        "id": 137,
        "name": "Ittre",
        "location": {
            "lat": 50.65,
            "lng": 4.26666667
        },
        "iso": "BEL"
    },
    {
        "id": 138,
        "name": "Jodoigne",
        "location": {
            "lat": 50.71666667,
            "lng": 4.86666667
        },
        "iso": "BEL"
    },
    {
        "id": 139,
        "name": "Mont-Saint-Guibert",
        "location": {
            "lat": 50.63333333,
            "lng": 4.61666667
        },
        "iso": "BEL"
    },
    {
        "id": 140,
        "name": "Orp-Jauche",
        "location": {
            "lat": 50.68333333,
            "lng": 4.95
        },
        "iso": "BEL"
    },
    {
        "id": 141,
        "name": "Rixensart",
        "location": {
            "lat": 50.71666667,
            "lng": 4.53333333
        },
        "iso": "BEL"
    },
    {
        "id": 142,
        "name": "Anhée",
        "location": {
            "lat": 50.31666667,
            "lng": 4.88333333
        },
        "iso": "BEL"
    },
    {
        "id": 143,
        "name": "Ciney",
        "location": {
            "lat": 50.3,
            "lng": 5.1
        },
        "iso": "BEL"
    },
    {
        "id": 144,
        "name": "Havelange",
        "location": {
            "lat": 50.38333333,
            "lng": 5.25
        },
        "iso": "BEL"
    },
    {
        "id": 145,
        "name": "Andenne",
        "location": {
            "lat": 50.48333333,
            "lng": 5.1
        },
        "iso": "BEL"
    },
    {
        "id": 146,
        "name": "Fernelmont",
        "location": {
            "lat": 50.55,
            "lng": 4.98333333
        },
        "iso": "BEL"
    },
    {
        "id": 147,
        "name": "Gesves",
        "location": {
            "lat": 50.4,
            "lng": 5.06666667
        },
        "iso": "BEL"
    },
    {
        "id": 148,
        "name": "Jemeppe-sur-Sambre",
        "location": {
            "lat": 50.46666667,
            "lng": 4.66666667
        },
        "iso": "BEL"
    },
    {
        "id": 149,
        "name": "Mettet",
        "location": {
            "lat": 50.31666667,
            "lng": 4.66666667
        },
        "iso": "BEL"
    },
    {
        "id": 150,
        "name": "Florennes",
        "location": {
            "lat": 50.25,
            "lng": 4.61666667
        },
        "iso": "BEL"
    },
    {
        "id": 151,
        "name": "Anthisnes",
        "location": {
            "lat": 50.48333333,
            "lng": 5.51666667
        },
        "iso": "BEL"
    },
    {
        "id": 152,
        "name": "Marchin",
        "location": {
            "lat": 50.46666667,
            "lng": 5.23333333
        },
        "iso": "BEL"
    },
    {
        "id": 153,
        "name": "Wanze",
        "location": {
            "lat": 50.53333333,
            "lng": 5.21666667
        },
        "iso": "BEL"
    },
    {
        "id": 154,
        "name": "Awans",
        "location": {
            "lat": 50.66666667,
            "lng": 5.46666667
        },
        "iso": "BEL"
    },
    {
        "id": 155,
        "name": "Aywaille",
        "location": {
            "lat": 50.46666667,
            "lng": 5.66666667
        },
        "iso": "BEL"
    },
    {
        "id": 156,
        "name": "Braives",
        "location": {
            "lat": 50.63333333,
            "lng": 5.15
        },
        "iso": "BEL"
    },
    {
        "id": 157,
        "name": "Donceel",
        "location": {
            "lat": 50.65,
            "lng": 5.31666667
        },
        "iso": "BEL"
    },
    {
        "id": 158,
        "name": "Arlon",
        "location": {
            "lat": 49.68333333,
            "lng": 5.81666667
        },
        "iso": "LUX"
    },
    {
        "id": 159,
        "name": "Gouvy",
        "location": {
            "lat": 50.18333333,
            "lng": 5.93333333
        },
        "iso": "BEL"
    },
    {
        "id": 160,
        "name": "Vielsalm",
        "location": {
            "lat": 50.28333333,
            "lng": 5.91666667
        },
        "iso": "BEL"
    },
    {
        "id": 161,
        "name": "Durbuy",
        "location": {
            "lat": 50.35216667,
            "lng": 5.45633333
        },
        "iso": "BEL"
    },
    {
        "id": 162,
        "name": "Érezée",
        "location": {
            "lat": 50.29166667,
            "lng": 5.55833333
        },
        "iso": "BEL"
    },
    {
        "id": 163,
        "name": "Nassogne",
        "location": {
            "lat": 50.13333333,
            "lng": 5.35
        },
        "iso": "BEL"
    },
    {
        "id": 164,
        "name": "Rendeux",
        "location": {
            "lat": 50.23333333,
            "lng": 5.5
        },
        "iso": "BEL"
    },
    {
        "id": 165,
        "name": "Bertrix",
        "location": {
            "lat": 49.85416667,
            "lng": 5.25333333
        },
        "iso": "BEL"
    },
    {
        "id": 166,
        "name": "Libin",
        "location": {
            "lat": 49.98333333,
            "lng": 5.25
        },
        "iso": "BEL"
    },
    {
        "id": 167,
        "name": "Étalle, Belgium",
        "location": {
            "lat": 49.68333333,
            "lng": 5.6
        },
        "iso": "BEL"
    },
    {
        "id": 168,
        "name": "Florenville",
        "location": {
            "lat": 49.69833333,
            "lng": 5.31
        },
        "iso": "FRA"
    },
    {
        "id": 169,
        "name": "Habay",
        "location": {
            "lat": 49.73333333,
            "lng": 5.61666667
        },
        "iso": "BEL"
    },
    {
        "id": 170,
        "name": "Virton",
        "location": {
            "lat": 49.5675,
            "lng": 5.5325
        },
        "iso": "FRA"
    },
    {
        "id": 171,
        "name": "Himeji Castle",
        "location": {
            "lat": 34.83944444,
            "lng": 134.69388889
        },
        "iso": "JPN"
    },
    {
        "id": 172,
        "name": "Tecklenburg",
        "location": {
            "lat": 52.21944444,
            "lng": 7.8125
        },
        "iso": "DEU"
    },
    {
        "id": 173,
        "name": "Trowbridge",
        "location": {
            "lat": 51.32,
            "lng": -2.21
        },
        "iso": "GBR"
    },
    {
        "id": 174,
        "name": "Warwick Castle",
        "location": {
            "lat": 52.27916667,
            "lng": -1.58472222
        },
        "iso": "GBR"
    },
    {
        "id": 175,
        "name": "Castle Ring",
        "location": {
            "lat": 52.71284,
            "lng": -1.93483
        },
        "iso": "GBR"
    },
    {
        "id": 176,
        "name": "Gediminas' Tower",
        "location": {
            "lat": 54.6867,
            "lng": 25.2907
        },
        "iso": "LTU"
    },
    {
        "id": 177,
        "name": "Beaumaris Castle",
        "location": {
            "lat": 53.2648,
            "lng": -4.0897
        },
        "iso": "GBR"
    },
    {
        "id": 178,
        "name": "Conwy Castle",
        "location": {
            "lat": 53.28,
            "lng": -3.825556
        },
        "iso": "GBR"
    },
    {
        "id": 179,
        "name": "Ludlow Castle",
        "location": {
            "lat": 52.3672,
            "lng": -2.723
        },
        "iso": "GBR"
    },
    {
        "id": 180,
        "name": "Château d'If",
        "location": {
            "lat": 43.27986111,
            "lng": 5.32513889
        },
        "iso": "unknown"
    },
    {
        "id": 181,
        "name": "Newcastle University",
        "location": {
            "lat": 54.978,
            "lng": -1.615
        },
        "iso": "GBR"
    },
    {
        "id": 182,
        "name": "Alamut Castle",
        "location": {
            "lat": 36.44461944,
            "lng": 50.58599444
        },
        "iso": "IRN"
    },
    {
        "id": 183,
        "name": "Criccieth Castle",
        "location": {
            "lat": 52.916,
            "lng": -4.2325
        },
        "iso": "GBR"
    },
    {
        "id": 184,
        "name": "Dolwyddelan Castle",
        "location": {
            "lat": 53.05293,
            "lng": -3.90809
        },
        "iso": "GBR"
    },
    {
        "id": 185,
        "name": "Durham Cathedral",
        "location": {
            "lat": 54.77361111,
            "lng": -1.57611111
        },
        "iso": "GBR"
    },
    {
        "id": 186,
        "name": "Buckingham",
        "location": {
            "lat": 51.9956,
            "lng": -0.9868
        },
        "iso": "GBR"
    },
    {
        "id": 187,
        "name": "Stirling Castle",
        "location": {
            "lat": 56.12388889,
            "lng": -3.94888889
        },
        "iso": "GBR"
    },
    {
        "id": 188,
        "name": "Burtnieki",
        "location": {
            "lat": 57.69472222,
            "lng": 25.275
        },
        "iso": "LVA"
    },
    {
        "id": 189,
        "name": "Chapel Royal, Dublin",
        "location": {
            "lat": 53.343115,
            "lng": -6.266107
        },
        "iso": "IRL"
    },
    {
        "id": 190,
        "name": "Mir Castle Complex",
        "location": {
            "lat": 53.45123889,
            "lng": 26.473
        },
        "iso": "BLR"
    },
    {
        "id": 191,
        "name": "Castle of Mey",
        "location": {
            "lat": 58.64722222,
            "lng": -3.225
        },
        "iso": "unknown"
    },
    {
        "id": 192,
        "name": "Elephant and Castle",
        "location": {
            "lat": 51.495,
            "lng": -0.101
        },
        "iso": "GBR"
    },
    {
        "id": 193,
        "name": "Neuschwanstein Castle",
        "location": {
            "lat": 47.5575,
            "lng": 10.75
        },
        "iso": "DEU"
    },
    {
        "id": 194,
        "name": "Brecon",
        "location": {
            "lat": 51.948,
            "lng": -3.391
        },
        "iso": "GBR"
    },
    {
        "id": 195,
        "name": "Castle Hill, Mere",
        "location": {
            "lat": 51.091,
            "lng": -2.2728
        },
        "iso": "GBR"
    },
    {
        "id": 196,
        "name": "Eccleshall Castle",
        "location": {
            "lat": 52.8627,
            "lng": -2.25841
        },
        "iso": "GBR"
    },
    {
        "id": 197,
        "name": "Stafford Castle",
        "location": {
            "lat": 52.7973,
            "lng": -2.1468
        },
        "iso": "GBR"
    },
    {
        "id": 198,
        "name": "Dover Castle",
        "location": {
            "lat": 51.1297,
            "lng": 1.3214
        },
        "iso": "unknown"
    },
    {
        "id": 199,
        "name": "Walmer Castle",
        "location": {
            "lat": 51.20099167,
            "lng": 1.40230833
        },
        "iso": "unknown"
    },
    {
        "id": 200,
        "name": "Bodiam Castle",
        "location": {
            "lat": 51.0023,
            "lng": 0.5435
        },
        "iso": "GBR"
    },
    {
        "id": 201,
        "name": "Tintagel Castle",
        "location": {
            "lat": 50.66706,
            "lng": -4.75936
        },
        "iso": "GBR"
    },
    {
        "id": 202,
        "name": "Castle Drogo",
        "location": {
            "lat": 50.696,
            "lng": -3.8114
        },
        "iso": "GBR"
    },
    {
        "id": 203,
        "name": "Ashby de la Zouch Castle",
        "location": {
            "lat": 52.745435,
            "lng": -1.465685
        },
        "iso": "GBR"
    },
    {
        "id": 204,
        "name": "Olavinlinna",
        "location": {
            "lat": 61.86388889,
            "lng": 28.90111111
        },
        "iso": "FIN"
    },
    {
        "id": 205,
        "name": "Montezuma Castle National Monument",
        "location": {
            "lat": 34.611,
            "lng": -111.834
        },
        "iso": "USA"
    },
    {
        "id": 206,
        "name": "Totnes Castle",
        "location": {
            "lat": 50.4321,
            "lng": -3.691
        },
        "iso": "GBR"
    },
    {
        "id": 207,
        "name": "Cadzow Castle",
        "location": {
            "lat": 55.76045,
            "lng": -4.01745
        },
        "iso": "GBR"
    },
    {
        "id": 208,
        "name": "Castle Hill, New South Wales",
        "location": {
            "lat": -33.72916667,
            "lng": 151.00388889
        },
        "iso": "AUS"
    },
    {
        "id": 209,
        "name": "Castel Sant'Angelo",
        "location": {
            "lat": 41.9031,
            "lng": 12.4664
        },
        "iso": "ITA"
    },
    {
        "id": 210,
        "name": "Miramare Castle",
        "location": {
            "lat": 45.7025,
            "lng": 13.7125
        },
        "iso": "ITA"
    },
    {
        "id": 211,
        "name": "Lurgan",
        "location": {
            "lat": 54.464722,
            "lng": -6.332222
        },
        "iso": "GBR"
    },
    {
        "id": 212,
        "name": "Chûn Castle",
        "location": {
            "lat": 50.1487,
            "lng": -5.6337
        },
        "iso": "GBR"
    },
    {
        "id": 213,
        "name": "Nottingham Castle",
        "location": {
            "lat": 52.9493,
            "lng": -1.1546
        },
        "iso": "GBR"
    },
    {
        "id": 214,
        "name": "Carisbrooke Castle",
        "location": {
            "lat": 50.6869,
            "lng": -1.3134
        },
        "iso": "unknown"
    },
    {
        "id": 215,
        "name": "Castle Menzies",
        "location": {
            "lat": 56.62274,
            "lng": -3.90517
        },
        "iso": "GBR"
    },
    {
        "id": 216,
        "name": "St Mary's, Isles of Scilly",
        "location": {
            "lat": 49.922,
            "lng": -6.297
        },
        "iso": "unknown"
    },
    {
        "id": 217,
        "name": "Sheffield Manor Lodge",
        "location": {
            "lat": 53.374031,
            "lng": -1.436656
        },
        "iso": "GBR"
    },
    {
        "id": 218,
        "name": "Stockholm Palace",
        "location": {
            "lat": 59.32694444,
            "lng": 18.07166667
        },
        "iso": "SWE"
    },
    {
        "id": 219,
        "name": "SS Princess Alice (1865)",
        "location": {
            "lat": 51.51054,
            "lng": 0.09015
        },
        "iso": "GBR"
    },
    {
        "id": 220,
        "name": "Nenagh",
        "location": {
            "lat": 52.8632,
            "lng": -8.1995
        },
        "iso": "IRL"
    },
    {
        "id": 221,
        "name": "Kumamoto Castle",
        "location": {
            "lat": 32.806063,
            "lng": 130.705972
        },
        "iso": "JPN"
    },
    {
        "id": 222,
        "name": "Sudeley Castle",
        "location": {
            "lat": 51.94722222,
            "lng": -1.95611111
        },
        "iso": "GBR"
    },
    {
        "id": 223,
        "name": "White Castle, Monmouthshire",
        "location": {
            "lat": 51.8454,
            "lng": -2.9029
        },
        "iso": "GBR"
    },
    {
        "id": 224,
        "name": "Sheffield Castle",
        "location": {
            "lat": 53.38472222,
            "lng": -1.46333333
        },
        "iso": "GBR"
    },
    {
        "id": 225,
        "name": "Trafalgar Castle School",
        "location": {
            "lat": 43.87856,
            "lng": -78.93289
        },
        "iso": "CAN"
    },
    {
        "id": 226,
        "name": "York Castle",
        "location": {
            "lat": 53.9558,
            "lng": -1.08
        },
        "iso": "GBR"
    },
    {
        "id": 227,
        "name": "East Midlands Airport",
        "location": {
            "lat": 52.83111111,
            "lng": -1.32777778
        },
        "iso": "GBR"
    },
    {
        "id": 228,
        "name": "Earl Shilton",
        "location": {
            "lat": 52.57777,
            "lng": -1.30491
        },
        "iso": "GBR"
    },
    {
        "id": 229,
        "name": "Darłowo",
        "location": {
            "lat": 54.41666667,
            "lng": 16.41666667
        },
        "iso": "POL"
    },
    {
        "id": 230,
        "name": "Elephant & Castle tube station",
        "location": {
            "lat": 51.4944,
            "lng": -0.0997
        },
        "iso": "GBR"
    },
    {
        "id": 231,
        "name": "Caerphilly Castle",
        "location": {
            "lat": 51.5761,
            "lng": -3.2203
        },
        "iso": "GBR"
    },
    {
        "id": 232,
        "name": "San Juan de Ulúa",
        "location": {
            "lat": 19.20916667,
            "lng": -96.13138889
        },
        "iso": "unknown"
    },
    {
        "id": 233,
        "name": "Battle of Nagashino",
        "location": {
            "lat": 34.92055556,
            "lng": 137.5625
        },
        "iso": "JPN"
    },
    {
        "id": 234,
        "name": "Nagashino Castle",
        "location": {
            "lat": 34.92281667,
            "lng": 137.55984722
        },
        "iso": "JPN"
    },
    {
        "id": 235,
        "name": "Nagoya Castle",
        "location": {
            "lat": 35.18555556,
            "lng": 136.89861111
        },
        "iso": "JPN"
    },
    {
        "id": 236,
        "name": "Noda Castle",
        "location": {
            "lat": 34.882043,
            "lng": 137.468431
        },
        "iso": "JPN"
    },
    {
        "id": 237,
        "name": "Siege of Noda Castle",
        "location": {
            "lat": 34.882043,
            "lng": 137.468431
        },
        "iso": "JPN"
    },
    {
        "id": 238,
        "name": "Okazaki Castle",
        "location": {
            "lat": 34.95638889,
            "lng": 137.15888889
        },
        "iso": "JPN"
    },
    {
        "id": 239,
        "name": "Broughty Castle",
        "location": {
            "lat": 56.46277778,
            "lng": -2.87027778
        },
        "iso": "GBR"
    },
    {
        "id": 240,
        "name": "Bishop's Castle",
        "location": {
            "lat": 52.493,
            "lng": -2.9978
        },
        "iso": "GBR"
    },
    {
        "id": 241,
        "name": "Hearst Castle",
        "location": {
            "lat": 35.6852,
            "lng": -121.1666
        },
        "iso": "USA"
    },
    {
        "id": 242,
        "name": "Brackley",
        "location": {
            "lat": 52.032,
            "lng": -1.147
        },
        "iso": "GBR"
    },
    {
        "id": 243,
        "name": "Dudley Castle",
        "location": {
            "lat": 52.5142,
            "lng": -2.08
        },
        "iso": "GBR"
    },
    {
        "id": 244,
        "name": "Pollok",
        "location": {
            "lat": 55.8247,
            "lng": -4.3524
        },
        "iso": "GBR"
    },
    {
        "id": 245,
        "name": "HM Prison Holloway",
        "location": {
            "lat": 51.55400833,
            "lng": -0.12530833
        },
        "iso": "GBR"
    },
    {
        "id": 246,
        "name": "Kinghorn",
        "location": {
            "lat": 56.07,
            "lng": -3.17
        },
        "iso": "GBR"
    },
    {
        "id": 247,
        "name": "Uffington Castle",
        "location": {
            "lat": 51.57478,
            "lng": -1.56994
        },
        "iso": "GBR"
    },
    {
        "id": 248,
        "name": "Belcourt of Newport",
        "location": {
            "lat": 41.4575,
            "lng": -71.30627
        },
        "iso": "USA"
    },
    {
        "id": 249,
        "name": "Colliston Castle",
        "location": {
            "lat": 56.60805556,
            "lng": -2.63277778
        },
        "iso": "GBR"
    },
    {
        "id": 250,
        "name": "Osaka Castle",
        "location": {
            "lat": 34.68722222,
            "lng": 135.52583333
        },
        "iso": "JPN"
    },
    {
        "id": 251,
        "name": "Kilkenny Castle",
        "location": {
            "lat": 52.65027778,
            "lng": -7.24916667
        },
        "iso": "IRL"
    },
    {
        "id": 252,
        "name": "Cortona",
        "location": {
            "lat": 43.27555556,
            "lng": 11.98805556
        },
        "iso": "ITA"
    },
    {
        "id": 253,
        "name": "Castle of Almourol",
        "location": {
            "lat": 39.46194444,
            "lng": -8.38383056
        },
        "iso": "PRT"
    },
    {
        "id": 254,
        "name": "Berlin Palace",
        "location": {
            "lat": 52.5175,
            "lng": 13.40277778
        },
        "iso": "DEU"
    },
    {
        "id": 255,
        "name": "Castle Morpeth",
        "location": {
            "lat": 55.15416667,
            "lng": -1.68722222
        },
        "iso": "GBR"
    },
    {
        "id": 256,
        "name": "Castlederg",
        "location": {
            "lat": 54.7083,
            "lng": -7.5934
        },
        "iso": "IRL"
    },
    {
        "id": 257,
        "name": "Berkeley Castle",
        "location": {
            "lat": 51.68797,
            "lng": -2.45707
        },
        "iso": "GBR"
    },
    {
        "id": 258,
        "name": "Portchester Castle",
        "location": {
            "lat": 50.836546,
            "lng": -1.113034
        },
        "iso": "GBR"
    },
    {
        "id": 259,
        "name": "Castle Point",
        "location": {
            "lat": 51.54,
            "lng": 0.58
        },
        "iso": "GBR"
    },
    {
        "id": 260,
        "name": "Korela Fortress",
        "location": {
            "lat": 61.02944444,
            "lng": 30.12277778
        },
        "iso": "RUS"
    },
    {
        "id": 261,
        "name": "Rathfarnham",
        "location": {
            "lat": 53.298776,
            "lng": -6.285447
        },
        "iso": "IRL"
    },
    {
        "id": 262,
        "name": "Drumlanrig Castle",
        "location": {
            "lat": 55.27388889,
            "lng": -3.80888889
        },
        "iso": "GBR"
    },
    {
        "id": 263,
        "name": "Castell Coch",
        "location": {
            "lat": 51.5354,
            "lng": -3.2536
        },
        "iso": "GBR"
    },
    {
        "id": 264,
        "name": "Königsburg",
        "location": {
            "lat": 51.74175,
            "lng": 10.76718333
        },
        "iso": "DEU"
    },
    {
        "id": 265,
        "name": "Ross Castle",
        "location": {
            "lat": 52.041,
            "lng": -9.531
        },
        "iso": "IRL"
    },
    {
        "id": 266,
        "name": "Greenlaw",
        "location": {
            "lat": 55.711,
            "lng": -2.455
        },
        "iso": "GBR"
    },
    {
        "id": 267,
        "name": "Takeshi's Castle",
        "location": {
            "lat": 35.56833333,
            "lng": 139.48388889
        },
        "iso": "JPN"
    },
    {
        "id": 268,
        "name": "Inveraray Castle",
        "location": {
            "lat": 56.2375,
            "lng": -5.073333
        },
        "iso": "GBR"
    },
    {
        "id": 269,
        "name": "Wyre, Orkney",
        "location": {
            "lat": 59.11666667,
            "lng": -2.96666667
        },
        "iso": "unknown"
    },
    {
        "id": 270,
        "name": "Bran Castle",
        "location": {
            "lat": 45.515,
            "lng": 25.36722222
        },
        "iso": "ROU"
    },
    {
        "id": 271,
        "name": "Sissinghurst Castle Garden",
        "location": {
            "lat": 51.1157,
            "lng": 0.5815
        },
        "iso": "GBR"
    },
    {
        "id": 272,
        "name": "Château de Vincennes",
        "location": {
            "lat": 48.84277778,
            "lng": 2.43583333
        },
        "iso": "FRA"
    },
    {
        "id": 273,
        "name": "Trim Castle",
        "location": {
            "lat": 53.555,
            "lng": -6.7897
        },
        "iso": "IRL"
    },
    {
        "id": 274,
        "name": "Oscarshall",
        "location": {
            "lat": 59.91014722,
            "lng": 10.69223333
        },
        "iso": "NOR"
    },
    {
        "id": 275,
        "name": "Dunvegan Castle",
        "location": {
            "lat": 57.448,
            "lng": -6.59
        },
        "iso": "unknown"
    },
    {
        "id": 276,
        "name": "Carbisdale Castle",
        "location": {
            "lat": 57.9255,
            "lng": -4.409
        },
        "iso": "GBR"
    },
    {
        "id": 277,
        "name": "Mystery Castle",
        "location": {
            "lat": 33.3566054,
            "lng": -112.0620275
        },
        "iso": "USA"
    },
    {
        "id": 278,
        "name": "Barbury Castle",
        "location": {
            "lat": 51.4853,
            "lng": -1.7865
        },
        "iso": "GBR"
    },
    {
        "id": 279,
        "name": "Bunratty Castle",
        "location": {
            "lat": 52.69666667,
            "lng": -8.81166667
        },
        "iso": "IRL"
    },
    {
        "id": 280,
        "name": "Ailsa Craig",
        "location": {
            "lat": 55.25194444,
            "lng": -5.11638889
        },
        "iso": "unknown"
    },
    {
        "id": 281,
        "name": "Rumelihisarı",
        "location": {
            "lat": 41.084722,
            "lng": 29.056111
        },
        "iso": "unknown"
    },
    {
        "id": 282,
        "name": "Königstein Fortress",
        "location": {
            "lat": 50.91888889,
            "lng": 14.05666667
        },
        "iso": "CZE"
    },
    {
        "id": 283,
        "name": "Stormont Castle",
        "location": {
            "lat": 54.602003,
            "lng": -5.830232
        },
        "iso": "GBR"
    },
    {
        "id": 284,
        "name": "Castle Creek (South Dakota)",
        "location": {
            "lat": 44.0864,
            "lng": -103.6194
        },
        "iso": "USA"
    },
    {
        "id": 285,
        "name": "Nijō Castle",
        "location": {
            "lat": 35.01416667,
            "lng": 135.7475
        },
        "iso": "JPN"
    },
    {
        "id": 286,
        "name": "Dunamase",
        "location": {
            "lat": 53.03166667,
            "lng": -7.21027778
        },
        "iso": "IRL"
    },
    {
        "id": 287,
        "name": "Cahir Castle",
        "location": {
            "lat": 52.3745,
            "lng": -7.9272
        },
        "iso": "IRL"
    },
    {
        "id": 288,
        "name": "Chipping Norton",
        "location": {
            "lat": 51.94,
            "lng": -1.55
        },
        "iso": "GBR"
    },
    {
        "id": 289,
        "name": "Craggaunowen",
        "location": {
            "lat": 52.811077,
            "lng": -8.793654
        },
        "iso": "IRL"
    },
    {
        "id": 290,
        "name": "Castle of Salir",
        "location": {
            "lat": 37.24281389,
            "lng": -8.04656944
        },
        "iso": "PRT"
    },
    {
        "id": 291,
        "name": "Kisimul Castle",
        "location": {
            "lat": 56.9521389,
            "lng": -7.48750001
        },
        "iso": "unknown"
    },
    {
        "id": 292,
        "name": "Eltz Castle",
        "location": {
            "lat": 50.2049,
            "lng": 7.3367
        },
        "iso": "DEU"
    },
    {
        "id": 293,
        "name": "Boscastle",
        "location": {
            "lat": 50.684,
            "lng": -4.6929
        },
        "iso": "GBR"
    },
    {
        "id": 294,
        "name": "Rosenborg Castle",
        "location": {
            "lat": 55.68555556,
            "lng": 12.57777778
        },
        "iso": "DNK"
    },
    {
        "id": 295,
        "name": "Dunnottar Castle",
        "location": {
            "lat": 56.946,
            "lng": -2.197
        },
        "iso": "GBR"
    },
    {
        "id": 296,
        "name": "Neidpath Castle",
        "location": {
            "lat": 55.65152778,
            "lng": -3.21477778
        },
        "iso": "GBR"
    },
    {
        "id": 297,
        "name": "Castle Rock State Park (California)",
        "location": {
            "lat": 37.2306,
            "lng": -122.09568
        },
        "iso": "USA"
    },
    {
        "id": 298,
        "name": "Schwerin Palace",
        "location": {
            "lat": 53.62416667,
            "lng": 11.41888889
        },
        "iso": "DEU"
    },
    {
        "id": 299,
        "name": "Drumcondra, Dublin",
        "location": {
            "lat": 53.368,
            "lng": -6.256
        },
        "iso": "IRL"
    },
    {
        "id": 300,
        "name": "Edo Castle",
        "location": {
            "lat": 35.688324,
            "lng": 139.754389
        },
        "iso": "JPN"
    },
    {
        "id": 301,
        "name": "New Radnor",
        "location": {
            "lat": 52.24,
            "lng": -3.16
        },
        "iso": "GBR"
    },
    {
        "id": 302,
        "name": "Hohenwerfen Castle",
        "location": {
            "lat": 47.48194444,
            "lng": 13.18777778
        },
        "iso": "AUT"
    },
    {
        "id": 303,
        "name": "Pontefract Castle",
        "location": {
            "lat": 53.69555556,
            "lng": -1.30388889
        },
        "iso": "GBR"
    },
    {
        "id": 304,
        "name": "Brodie Castle",
        "location": {
            "lat": 57.59833333,
            "lng": -3.70888889
        },
        "iso": "GBR"
    },
    {
        "id": 305,
        "name": "Braemar Castle",
        "location": {
            "lat": 57.0147,
            "lng": -3.3914
        },
        "iso": "GBR"
    },
    {
        "id": 306,
        "name": "Castle Fraser",
        "location": {
            "lat": 57.203,
            "lng": -2.46055556
        },
        "iso": "GBR"
    },
    {
        "id": 307,
        "name": "Drum Castle",
        "location": {
            "lat": 57.095,
            "lng": -2.838
        },
        "iso": "GBR"
    },
    {
        "id": 308,
        "name": "Craigievar Castle",
        "location": {
            "lat": 57.1742,
            "lng": -2.7181
        },
        "iso": "GBR"
    },
    {
        "id": 309,
        "name": "Fyvie Castle",
        "location": {
            "lat": 57.4433,
            "lng": -2.3949
        },
        "iso": "GBR"
    },
    {
        "id": 310,
        "name": "Balvenie Castle",
        "location": {
            "lat": 57.45293056,
            "lng": -3.124
        },
        "iso": "GBR"
    },
    {
        "id": 311,
        "name": "Kildrummy Castle",
        "location": {
            "lat": 57.23481111,
            "lng": -2.90463056
        },
        "iso": "GBR"
    },
    {
        "id": 312,
        "name": "Delgatie Castle",
        "location": {
            "lat": 57.5443,
            "lng": -2.412
        },
        "iso": "GBR"
    },
    {
        "id": 313,
        "name": "Castlebar",
        "location": {
            "lat": 53.8608,
            "lng": -9.2988
        },
        "iso": "IRL"
    },
    {
        "id": 314,
        "name": "New Slains Castle",
        "location": {
            "lat": 57.4152,
            "lng": -1.8324
        },
        "iso": "unknown"
    },
    {
        "id": 315,
        "name": "Coral Castle",
        "location": {
            "lat": 25.50027778,
            "lng": -80.445
        },
        "iso": "USA"
    },
    {
        "id": 316,
        "name": "Corgarff Castle",
        "location": {
            "lat": 57.16277778,
            "lng": -3.23416667
        },
        "iso": "GBR"
    },
    {
        "id": 317,
        "name": "Auchindoun Castle",
        "location": {
            "lat": 57.422825,
            "lng": -3.08564683
        },
        "iso": "GBR"
    },
    {
        "id": 318,
        "name": "Bognie Castle",
        "location": {
            "lat": 57.4934,
            "lng": -2.6774
        },
        "iso": "GBR"
    },
    {
        "id": 319,
        "name": "Curwood Castle",
        "location": {
            "lat": 42.99277778,
            "lng": -84.17527778
        },
        "iso": "USA"
    },
    {
        "id": 320,
        "name": "Kielder Forest",
        "location": {
            "lat": 55.208,
            "lng": -2.528
        },
        "iso": "GBR"
    },
    {
        "id": 321,
        "name": "Raglan Castle",
        "location": {
            "lat": 51.7703,
            "lng": -2.8521
        },
        "iso": "GBR"
    },
    {
        "id": 322,
        "name": "Aizuwakamatsu Castle",
        "location": {
            "lat": 37.48777778,
            "lng": 139.92972222
        },
        "iso": "JPN"
    },
    {
        "id": 323,
        "name": "Severndroog Castle",
        "location": {
            "lat": 51.4666,
            "lng": 0.0599
        },
        "iso": "GBR"
    },
    {
        "id": 324,
        "name": "Colchester Castle",
        "location": {
            "lat": 51.890589,
            "lng": 0.903047
        },
        "iso": "GBR"
    },
    {
        "id": 325,
        "name": "Trakošćan Castle",
        "location": {
            "lat": 46.25916667,
            "lng": 15.95
        },
        "iso": "HRV"
    },
    {
        "id": 326,
        "name": "Ferrières, Belgium",
        "location": {
            "lat": 50.4,
            "lng": 5.6
        },
        "iso": "BEL"
    },
    {
        "id": 327,
        "name": "Hartley Castle",
        "location": {
            "lat": 54.4694,
            "lng": -2.3383
        },
        "iso": "GBR"
    },
    {
        "id": 328,
        "name": "Prague Castle",
        "location": {
            "lat": 50.08975,
            "lng": 14.3984
        },
        "iso": "CZE"
    },
    {
        "id": 329,
        "name": "Fort Zeelandia (Taiwan)",
        "location": {
            "lat": 23.001747,
            "lng": 120.160919
        },
        "iso": "unknown"
    },
    {
        "id": 330,
        "name": "St Patrick's Isle",
        "location": {
            "lat": 54.22583333,
            "lng": -4.70166667
        },
        "iso": "unknown"
    },
    {
        "id": 331,
        "name": "Peel Castle",
        "location": {
            "lat": 54.22645,
            "lng": -4.6991
        },
        "iso": "unknown"
    },
    {
        "id": 332,
        "name": "Champagne Castle",
        "location": {
            "lat": -29.08138889,
            "lng": 29.32805556
        },
        "iso": "ZAF"
    },
    {
        "id": 333,
        "name": "Giant's Castle",
        "location": {
            "lat": -29.33333333,
            "lng": 29.48333333
        },
        "iso": "ZAF"
    },
    {
        "id": 334,
        "name": "Carew Castle",
        "location": {
            "lat": 51.69833333,
            "lng": -4.83055556
        },
        "iso": "GBR"
    },
    {
        "id": 335,
        "name": "Smithsonian Institution Building",
        "location": {
            "lat": 38.88874722,
            "lng": -77.02599722
        },
        "iso": "USA"
    },
    {
        "id": 336,
        "name": "Castle Junction",
        "location": {
            "lat": 51.26861111,
            "lng": -115.91916667
        },
        "iso": "CAN"
    },
    {
        "id": 337,
        "name": "Zwijnaarde",
        "location": {
            "lat": 51,
            "lng": 3.71666667
        },
        "iso": "BEL"
    },
    {
        "id": 338,
        "name": "Castillo San Felipe del Morro",
        "location": {
            "lat": 18.4711,
            "lng": -66.1242
        },
        "iso": "PRI"
    },
    {
        "id": 339,
        "name": "Castillo San Cristóbal (San Juan)",
        "location": {
            "lat": 18.4672,
            "lng": -66.1111
        },
        "iso": "PRI"
    },
    {
        "id": 340,
        "name": "Pictured Rocks National Lakeshore",
        "location": {
            "lat": 46.56222222,
            "lng": -86.3125
        },
        "iso": "USA"
    },
    {
        "id": 341,
        "name": "O'Dea Castle",
        "location": {
            "lat": 52.91138889,
            "lng": -9.06638889
        },
        "iso": "IRL"
    },
    {
        "id": 342,
        "name": "Castle Hill Avenue (IRT Pelham Line)",
        "location": {
            "lat": 40.834139,
            "lng": -73.851686
        },
        "iso": "USA"
    },
    {
        "id": 343,
        "name": "Akershus Fortress",
        "location": {
            "lat": 59.90666667,
            "lng": 10.73611111
        },
        "iso": "NOR"
    },
    {
        "id": 344,
        "name": "Delaware Memorial Bridge",
        "location": {
            "lat": 39.68927,
            "lng": -75.51897
        },
        "iso": "USA"
    },
    {
        "id": 345,
        "name": "Castle Bromwich Hall Gardens",
        "location": {
            "lat": 52.50591,
            "lng": -1.79222
        },
        "iso": "GBR"
    },
    {
        "id": 346,
        "name": "Castel Gandolfo",
        "location": {
            "lat": 41.74674722,
            "lng": 12.65058611
        },
        "iso": "ITA"
    },
    {
        "id": 347,
        "name": "Matsumoto Castle",
        "location": {
            "lat": 36.23888889,
            "lng": 137.96916667
        },
        "iso": "JPN"
    },
    {
        "id": 348,
        "name": "Dillingen an der Donau",
        "location": {
            "lat": 48.56666667,
            "lng": 10.46666667
        },
        "iso": "DEU"
    },
    {
        "id": 349,
        "name": "Eilean Donan",
        "location": {
            "lat": 57.27402778,
            "lng": -5.51611111
        },
        "iso": "GBR"
    },
    {
        "id": 350,
        "name": "Battle of Bomarsund",
        "location": {
            "lat": 60.21222222,
            "lng": 20.23833333
        },
        "iso": "unknown"
    },
    {
        "id": 351,
        "name": "Powis Castle",
        "location": {
            "lat": 52.650573,
            "lng": -3.158281
        },
        "iso": "GBR"
    },
    {
        "id": 352,
        "name": "Hikone Castle",
        "location": {
            "lat": 35.27638889,
            "lng": 136.25166667
        },
        "iso": "JPN"
    },
    {
        "id": 353,
        "name": "Shimabara Castle",
        "location": {
            "lat": 32.789162,
            "lng": 130.367222
        },
        "iso": "JPN"
    },
    {
        "id": 354,
        "name": "Hirado Castle",
        "location": {
            "lat": 33.368575,
            "lng": 129.557567
        },
        "iso": "unknown"
    },
    {
        "id": 355,
        "name": "Karatsu Castle",
        "location": {
            "lat": 33.453539,
            "lng": 129.978194
        },
        "iso": "JPN"
    },
    {
        "id": 356,
        "name": "Shuri Castle",
        "location": {
            "lat": 26.21703056,
            "lng": 127.719475
        },
        "iso": "unknown"
    },
    {
        "id": 357,
        "name": "Boldt Castle",
        "location": {
            "lat": 44.344525,
            "lng": -75.922575
        },
        "iso": "USA"
    },
    {
        "id": 358,
        "name": "Kilchurn Castle",
        "location": {
            "lat": 56.40361111,
            "lng": -5.02888889
        },
        "iso": "GBR"
    },
    {
        "id": 359,
        "name": "Visegrád",
        "location": {
            "lat": 47.78483,
            "lng": 18.97367
        },
        "iso": "HUN"
    },
    {
        "id": 360,
        "name": "Reculver",
        "location": {
            "lat": 51.3786,
            "lng": 1.1979
        },
        "iso": "GBR"
    },
    {
        "id": 361,
        "name": "Chipping Ongar",
        "location": {
            "lat": 51.703,
            "lng": 0.244
        },
        "iso": "GBR"
    },
    {
        "id": 362,
        "name": "Hadlow Castle",
        "location": {
            "lat": 51.22361111,
            "lng": 0.33888889
        },
        "iso": "GBR"
    },
    {
        "id": 363,
        "name": "Matsumae Castle",
        "location": {
            "lat": 41.429833,
            "lng": 140.108389
        },
        "iso": "unknown"
    },
    {
        "id": 364,
        "name": "Skibo Castle",
        "location": {
            "lat": 57.87321667,
            "lng": -4.13221667
        },
        "iso": "GBR"
    },
    {
        "id": 365,
        "name": "Bar, Vinnytsia Oblast",
        "location": {
            "lat": 49.075,
            "lng": 27.67611111
        },
        "iso": "UKR"
    },
    {
        "id": 366,
        "name": "Castle Bravo",
        "location": {
            "lat": 11.69722222,
            "lng": 165.27194444
        },
        "iso": "unknown"
    },
    {
        "id": 367,
        "name": "Vyšehrad",
        "location": {
            "lat": 50.06416667,
            "lng": 14.41944444
        },
        "iso": "CZE"
    },
    {
        "id": 368,
        "name": "Culzean Castle",
        "location": {
            "lat": 55.3544,
            "lng": -4.7895
        },
        "iso": "GBR"
    },
    {
        "id": 369,
        "name": "Iwakuni Castle",
        "location": {
            "lat": 34.17525556,
            "lng": 132.17423056
        },
        "iso": "JPN"
    },
    {
        "id": 370,
        "name": "Odawara Castle",
        "location": {
            "lat": 35.25083333,
            "lng": 139.15361111
        },
        "iso": "JPN"
    },
    {
        "id": 371,
        "name": "South Kentish Town tube station",
        "location": {
            "lat": 51.54527778,
            "lng": -0.14166667
        },
        "iso": "GBR"
    },
    {
        "id": 372,
        "name": "Castle Vale",
        "location": {
            "lat": 52.521085,
            "lng": -1.784715
        },
        "iso": "GBR"
    },
    {
        "id": 373,
        "name": "Ormonde Castle",
        "location": {
            "lat": 52.345,
            "lng": -7.40777778
        },
        "iso": "IRL"
    },
    {
        "id": 374,
        "name": "Castle Bromwich",
        "location": {
            "lat": 52.505,
            "lng": -1.7856
        },
        "iso": "GBR"
    },
    {
        "id": 375,
        "name": "Loevestein Castle",
        "location": {
            "lat": 51.8164,
            "lng": 5.0214
        },
        "iso": "NLD"
    },
    {
        "id": 376,
        "name": "Cadbury Castle, Somerset",
        "location": {
            "lat": 51.0241,
            "lng": -2.5318
        },
        "iso": "GBR"
    },
    {
        "id": 377,
        "name": "Carlisle Castle",
        "location": {
            "lat": 54.89726,
            "lng": -2.941936
        },
        "iso": "GBR"
    },
    {
        "id": 378,
        "name": "Bamburgh Castle",
        "location": {
            "lat": 55.608,
            "lng": -1.709
        },
        "iso": "unknown"
    },
    {
        "id": 379,
        "name": "Dunbeath Castle",
        "location": {
            "lat": 58.235,
            "lng": -3.43555556
        },
        "iso": "GBR"
    },
    {
        "id": 380,
        "name": "RAF Bampton Castle",
        "location": {
            "lat": 51.71194444,
            "lng": -1.54361111
        },
        "iso": "GBR"
    },
    {
        "id": 381,
        "name": "Beeston Castle",
        "location": {
            "lat": 53.1277,
            "lng": -2.6913
        },
        "iso": "GBR"
    },
    {
        "id": 382,
        "name": "Deal Castle",
        "location": {
            "lat": 51.21854,
            "lng": 1.4039
        },
        "iso": "unknown"
    },
    {
        "id": 383,
        "name": "Fushimi Castle",
        "location": {
            "lat": 34.937534,
            "lng": 135.781194
        },
        "iso": "JPN"
    },
    {
        "id": 384,
        "name": "Shanbally Castle",
        "location": {
            "lat": 52.29277778,
            "lng": -8.04361111
        },
        "iso": "IRL"
    },
    {
        "id": 385,
        "name": "Augustusburg and Falkenlust Palaces, Brühl",
        "location": {
            "lat": 50.8275,
            "lng": 6.90805556
        },
        "iso": "DEU"
    },
    {
        "id": 386,
        "name": "Kolossi Castle",
        "location": {
            "lat": 34.665273,
            "lng": 32.933957
        },
        "iso": "CYP"
    },
    {
        "id": 387,
        "name": "Newbury Castle",
        "location": {
            "lat": 51.399,
            "lng": -1.395
        },
        "iso": "GBR"
    },
    {
        "id": 388,
        "name": "Wolf's Castle",
        "location": {
            "lat": 51.897,
            "lng": -4.971
        },
        "iso": "GBR"
    },
    {
        "id": 389,
        "name": "Castle Cary",
        "location": {
            "lat": 51.08798,
            "lng": -2.51395
        },
        "iso": "GBR"
    },
    {
        "id": 390,
        "name": "Norwich Castle",
        "location": {
            "lat": 52.6286,
            "lng": 1.2964
        },
        "iso": "GBR"
    },
    {
        "id": 391,
        "name": "PS Kingswear Castle",
        "location": {
            "lat": 51.39444444,
            "lng": 0.52472222
        },
        "iso": "GBR"
    },
    {
        "id": 392,
        "name": "Castle Geyser",
        "location": {
            "lat": 44.463445,
            "lng": -110.83666
        },
        "iso": "USA"
    },
    {
        "id": 393,
        "name": "Pamukkale",
        "location": {
            "lat": 37.92388889,
            "lng": 29.12333333
        },
        "iso": "TUR"
    },
    {
        "id": 394,
        "name": "Stahleck Castle",
        "location": {
            "lat": 50.05805556,
            "lng": 7.76555556
        },
        "iso": "DEU"
    },
    {
        "id": 395,
        "name": "Matsue Castle",
        "location": {
            "lat": 35.474977,
            "lng": 133.050556
        },
        "iso": "JPN"
    },
    {
        "id": 396,
        "name": "Bronkhorst",
        "location": {
            "lat": 52.08333333,
            "lng": 6.18333333
        },
        "iso": "NLD"
    },
    {
        "id": 397,
        "name": "Dunboy Castle",
        "location": {
            "lat": 51.633,
            "lng": -9.924
        },
        "iso": "unknown"
    },
    {
        "id": 398,
        "name": "Château de Montségur",
        "location": {
            "lat": 42.87555556,
            "lng": 1.8325
        },
        "iso": "FRA"
    },
    {
        "id": 399,
        "name": "Rathfarnham Castle",
        "location": {
            "lat": 53.298099,
            "lng": -6.283609
        },
        "iso": "IRL"
    },
    {
        "id": 400,
        "name": "Lambton Castle",
        "location": {
            "lat": 54.867,
            "lng": -1.536
        },
        "iso": "GBR"
    },
    {
        "id": 401,
        "name": "Castle Hill, Townsville",
        "location": {
            "lat": -19.2584,
            "lng": 146.8005
        },
        "iso": "AUS"
    },
    {
        "id": 402,
        "name": "Eastnor Castle",
        "location": {
            "lat": 52.028884,
            "lng": -2.387225
        },
        "iso": "GBR"
    },
    {
        "id": 403,
        "name": "Castle Acre Priory",
        "location": {
            "lat": 52.70052778,
            "lng": 0.68355556
        },
        "iso": "GBR"
    },
    {
        "id": 404,
        "name": "Chobham",
        "location": {
            "lat": 51.348,
            "lng": -0.604
        },
        "iso": "GBR"
    },
    {
        "id": 405,
        "name": "Hawarden Castle (medieval)",
        "location": {
            "lat": 53.180849,
            "lng": -3.01977
        },
        "iso": "GBR"
    },
    {
        "id": 406,
        "name": "Duart Castle",
        "location": {
            "lat": 56.45608333,
            "lng": -5.65494444
        },
        "iso": "GBR"
    },
    {
        "id": 407,
        "name": "Monkstown, County Dublin",
        "location": {
            "lat": 53.2938,
            "lng": -6.1537
        },
        "iso": "IRL"
    },
    {
        "id": 408,
        "name": "Esztergom",
        "location": {
            "lat": 47.78555556,
            "lng": 18.74027778
        },
        "iso": "HUN"
    },
    {
        "id": 409,
        "name": "Cessford Castle",
        "location": {
            "lat": 55.50770556,
            "lng": -2.41408056
        },
        "iso": "GBR"
    },
    {
        "id": 410,
        "name": "Blair Castle",
        "location": {
            "lat": 56.7736,
            "lng": -3.8578
        },
        "iso": "GBR"
    },
    {
        "id": 411,
        "name": "Nymphenburg Palace",
        "location": {
            "lat": 48.158056,
            "lng": 11.503611
        },
        "iso": "DEU"
    },
    {
        "id": 412,
        "name": "Clun Castle",
        "location": {
            "lat": 52.4216,
            "lng": -3.0337
        },
        "iso": "GBR"
    },
    {
        "id": 413,
        "name": "Shrewsbury Castle",
        "location": {
            "lat": 52.7077,
            "lng": -2.7541
        },
        "iso": "GBR"
    },
    {
        "id": 414,
        "name": "Etal Castle",
        "location": {
            "lat": 55.6481,
            "lng": -2.1207
        },
        "iso": "GBR"
    },
    {
        "id": 415,
        "name": "Blackness Castle",
        "location": {
            "lat": 56.00592,
            "lng": -3.5161
        },
        "iso": "GBR"
    },
    {
        "id": 416,
        "name": "Tynemouth Castle and Priory",
        "location": {
            "lat": 55.0175,
            "lng": -1.418889
        },
        "iso": "GBR"
    },
    {
        "id": 417,
        "name": "Castillo de San Marcos",
        "location": {
            "lat": 29.89777778,
            "lng": -81.31138889
        },
        "iso": "USA"
    },
    {
        "id": 418,
        "name": "HMS Denbigh Castle (K696)",
        "location": {
            "lat": 69.33333333,
            "lng": 33.55
        },
        "iso": "RUS"
    },
    {
        "id": 419,
        "name": "Dromoland Castle",
        "location": {
            "lat": 52.78325278,
            "lng": -8.90597222
        },
        "iso": "IRL"
    },
    {
        "id": 420,
        "name": "Birr Castle",
        "location": {
            "lat": 53.095319,
            "lng": -7.915542
        },
        "iso": "IRL"
    },
    {
        "id": 421,
        "name": "The Castle, Newcastle",
        "location": {
            "lat": 54.9688,
            "lng": -1.6105
        },
        "iso": "GBR"
    },
    {
        "id": 422,
        "name": "Blarney Castle",
        "location": {
            "lat": 51.9289,
            "lng": -8.5708
        },
        "iso": "IRL"
    },
    {
        "id": 423,
        "name": "Doune Castle",
        "location": {
            "lat": 56.185158,
            "lng": -4.050253
        },
        "iso": "GBR"
    },
    {
        "id": 424,
        "name": "Carrickfergus Castle",
        "location": {
            "lat": 54.713314,
            "lng": -5.806446
        },
        "iso": "unknown"
    },
    {
        "id": 425,
        "name": "Camber Castle",
        "location": {
            "lat": 50.93305,
            "lng": 0.73248
        },
        "iso": "GBR"
    },
    {
        "id": 426,
        "name": "Hurst Castle",
        "location": {
            "lat": 50.70638889,
            "lng": -1.55111111
        },
        "iso": "GBR"
    },
    {
        "id": 427,
        "name": "Yarmouth Castle",
        "location": {
            "lat": 50.706667,
            "lng": -1.500278
        },
        "iso": "GBR"
    },
    {
        "id": 428,
        "name": "Southsea Castle",
        "location": {
            "lat": 50.77805,
            "lng": -1.08888
        },
        "iso": "GBR"
    },
    {
        "id": 429,
        "name": "Calshot Castle",
        "location": {
            "lat": 50.82,
            "lng": -1.3075
        },
        "iso": "GBR"
    },
    {
        "id": 430,
        "name": "Lenzburg Castle",
        "location": {
            "lat": 47.38738,
            "lng": 8.18548
        },
        "iso": "CHE"
    },
    {
        "id": 431,
        "name": "Castle Stalker",
        "location": {
            "lat": 56.57111111,
            "lng": -5.38611111
        },
        "iso": "GBR"
    },
    {
        "id": 432,
        "name": "Kanturk",
        "location": {
            "lat": 52.175,
            "lng": -8.9
        },
        "iso": "IRL"
    },
    {
        "id": 433,
        "name": "Methven Castle",
        "location": {
            "lat": 56.4168,
            "lng": -3.5549
        },
        "iso": "GBR"
    },
    {
        "id": 434,
        "name": "Donnington Castle",
        "location": {
            "lat": 51.41944444,
            "lng": -1.3375
        },
        "iso": "GBR"
    },
    {
        "id": 435,
        "name": "Ormond Castle",
        "location": {
            "lat": 57.55361111,
            "lng": -4.18
        },
        "iso": "GBR"
    },
    {
        "id": 436,
        "name": "Adare",
        "location": {
            "lat": 52.564,
            "lng": -8.79
        },
        "iso": "IRL"
    },
    {
        "id": 437,
        "name": "Sandgate Castle",
        "location": {
            "lat": 51.07344444,
            "lng": 1.14888889
        },
        "iso": "unknown"
    },
    {
        "id": 438,
        "name": "Portland Castle",
        "location": {
            "lat": 50.56836111,
            "lng": -2.4468
        },
        "iso": "GBR"
    },
    {
        "id": 439,
        "name": "Sandsfoot Castle",
        "location": {
            "lat": 50.595222,
            "lng": -2.460822
        },
        "iso": "GBR"
    },
    {
        "id": 440,
        "name": "Breno",
        "location": {
            "lat": 45.95861111,
            "lng": 10.30555556
        },
        "iso": "ITA"
    },
    {
        "id": 441,
        "name": "Urquhart Castle",
        "location": {
            "lat": 57.324,
            "lng": -4.442
        },
        "iso": "GBR"
    },
    {
        "id": 442,
        "name": "Crookston Castle",
        "location": {
            "lat": 55.835,
            "lng": -4.35583333
        },
        "iso": "GBR"
    },
    {
        "id": 443,
        "name": "Preston School of Industry",
        "location": {
            "lat": 38.36111111,
            "lng": -120.93694444
        },
        "iso": "USA"
    },
    {
        "id": 444,
        "name": "Amalienborg",
        "location": {
            "lat": 55.68402778,
            "lng": 12.59333333
        },
        "iso": "DNK"
    },
    {
        "id": 445,
        "name": "Chiddingstone Castle",
        "location": {
            "lat": 51.1858,
            "lng": 0.1424
        },
        "iso": "GBR"
    },
    {
        "id": 446,
        "name": "Herstmonceux Castle",
        "location": {
            "lat": 50.8695,
            "lng": 0.3387
        },
        "iso": "GBR"
    },
    {
        "id": 447,
        "name": "Făgăraș",
        "location": {
            "lat": 45.84472222,
            "lng": 24.97416667
        },
        "iso": "ROU"
    },
    {
        "id": 448,
        "name": "Hermitage Castle",
        "location": {
            "lat": 55.2556,
            "lng": -2.7933
        },
        "iso": "GBR"
    },
    {
        "id": 449,
        "name": "Castle Combe",
        "location": {
            "lat": 51.493,
            "lng": -2.229
        },
        "iso": "GBR"
    },
    {
        "id": 450,
        "name": "Whitwick",
        "location": {
            "lat": 52.74027778,
            "lng": -1.35555556
        },
        "iso": "GBR"
    },
    {
        "id": 451,
        "name": "Larnach Castle",
        "location": {
            "lat": -45.861659,
            "lng": 170.627214
        },
        "iso": "NZL"
    },
    {
        "id": 452,
        "name": "Narrow Water Castle",
        "location": {
            "lat": 54.1148,
            "lng": -6.2828
        },
        "iso": "GBR"
    },
    {
        "id": 453,
        "name": "Sundorne",
        "location": {
            "lat": 52.73194444,
            "lng": -2.72138889
        },
        "iso": "GBR"
    },
    {
        "id": 454,
        "name": "Cargill's Castle",
        "location": {
            "lat": -45.917706,
            "lng": 170.480416
        },
        "iso": "NZL"
    },
    {
        "id": 455,
        "name": "Galston, East Ayrshire",
        "location": {
            "lat": 55.60037,
            "lng": -4.3798
        },
        "iso": "GBR"
    },
    {
        "id": 456,
        "name": "Ogmore Castle",
        "location": {
            "lat": 51.47995,
            "lng": -3.61278
        },
        "iso": "GBR"
    },
    {
        "id": 457,
        "name": "Malahide Castle",
        "location": {
            "lat": 53.44472222,
            "lng": -6.165
        },
        "iso": "IRL"
    },
    {
        "id": 458,
        "name": "Sherborne Castle",
        "location": {
            "lat": 50.946,
            "lng": -2.5006
        },
        "iso": "GBR"
    },
    {
        "id": 459,
        "name": "Richmond Castle",
        "location": {
            "lat": 54.4017,
            "lng": -1.7376
        },
        "iso": "GBR"
    },
    {
        "id": 460,
        "name": "Kirby Muxloe Castle",
        "location": {
            "lat": 52.6366,
            "lng": -1.2272
        },
        "iso": "GBR"
    },
    {
        "id": 461,
        "name": "Castle Clinton",
        "location": {
            "lat": 40.7035,
            "lng": -74.0168
        },
        "iso": "USA"
    },
    {
        "id": 462,
        "name": "Oxford Castle",
        "location": {
            "lat": 51.7517,
            "lng": -1.2632
        },
        "iso": "GBR"
    },
    {
        "id": 463,
        "name": "Abbotsbury Castle",
        "location": {
            "lat": 50.67825,
            "lng": -2.63118
        },
        "iso": "GBR"
    },
    {
        "id": 464,
        "name": "Falkland Palace",
        "location": {
            "lat": 56.25388889,
            "lng": -3.20638889
        },
        "iso": "GBR"
    },
    {
        "id": 465,
        "name": "St Donat's Castle",
        "location": {
            "lat": 51.402,
            "lng": -3.5334
        },
        "iso": "unknown"
    },
    {
        "id": 466,
        "name": "Orford Castle",
        "location": {
            "lat": 52.0936,
            "lng": 1.53
        },
        "iso": "GBR"
    },
    {
        "id": 467,
        "name": "The Castle School",
        "location": {
            "lat": 51.6153,
            "lng": -2.525
        },
        "iso": "GBR"
    },
    {
        "id": 468,
        "name": "Lewes Castle",
        "location": {
            "lat": 50.87416667,
            "lng": 0.00694444
        },
        "iso": "GBR"
    },
    {
        "id": 469,
        "name": "Lough Gur",
        "location": {
            "lat": 52.51638056,
            "lng": -8.53327778
        },
        "iso": "IRL"
    },
    {
        "id": 470,
        "name": "Dalhousie Castle",
        "location": {
            "lat": 55.860525,
            "lng": -3.08218056
        },
        "iso": "GBR"
    },
    {
        "id": 471,
        "name": "Thornbury Castle",
        "location": {
            "lat": 51.6136,
            "lng": -2.5301
        },
        "iso": "GBR"
    },
    {
        "id": 472,
        "name": "Chillon Castle",
        "location": {
            "lat": 46.41416667,
            "lng": 6.9275
        },
        "iso": "CHE"
    },
    {
        "id": 473,
        "name": "Lumley Castle",
        "location": {
            "lat": 54.85472,
            "lng": -1.55293
        },
        "iso": "GBR"
    },
    {
        "id": 474,
        "name": "Scotney Castle",
        "location": {
            "lat": 51.0928,
            "lng": 0.4082
        },
        "iso": "GBR"
    },
    {
        "id": 475,
        "name": "Dunollie Castle",
        "location": {
            "lat": 56.42638889,
            "lng": -5.48472222
        },
        "iso": "GBR"
    },
    {
        "id": 476,
        "name": "Orava Castle",
        "location": {
            "lat": 49.26166667,
            "lng": 19.35805556
        },
        "iso": "SVK"
    },
    {
        "id": 477,
        "name": "Hursley",
        "location": {
            "lat": 51.02279,
            "lng": -1.39114
        },
        "iso": "GBR"
    },
    {
        "id": 478,
        "name": "Highclere Castle",
        "location": {
            "lat": 51.326667,
            "lng": -1.361389
        },
        "iso": "GBR"
    },
    {
        "id": 479,
        "name": "Špilberk Castle",
        "location": {
            "lat": 49.19428889,
            "lng": 16.59891389
        },
        "iso": "CZE"
    },
    {
        "id": 480,
        "name": "Lambay Island",
        "location": {
            "lat": 53.494147,
            "lng": -5.995671
        },
        "iso": "unknown"
    },
    {
        "id": 481,
        "name": "Dundurn Castle",
        "location": {
            "lat": 43.269481,
            "lng": -79.884649
        },
        "iso": "CAN"
    },
    {
        "id": 482,
        "name": "Schuttbourg Castle",
        "location": {
            "lat": 49.9645,
            "lng": 6.0263
        },
        "iso": "LUX"
    },
    {
        "id": 483,
        "name": "HMS Hurst Castle (K416)",
        "location": {
            "lat": 55.45,
            "lng": -8.2
        },
        "iso": "unknown"
    },
    {
        "id": 484,
        "name": "Castle Park, Caerphilly",
        "location": {
            "lat": 51.57611111,
            "lng": -3.21166667
        },
        "iso": "GBR"
    },
    {
        "id": 485,
        "name": "Castlebay",
        "location": {
            "lat": 56.955,
            "lng": -7.486
        },
        "iso": "unknown"
    },
    {
        "id": 486,
        "name": "Château de Pau",
        "location": {
            "lat": 43.29472222,
            "lng": -0.375
        },
        "iso": "FRA"
    },
    {
        "id": 487,
        "name": "Newburgh, Fife",
        "location": {
            "lat": 56.3517,
            "lng": -3.2383
        },
        "iso": "GBR"
    },
    {
        "id": 488,
        "name": "Christiansborg Palace",
        "location": {
            "lat": 55.67583333,
            "lng": 12.57888889
        },
        "iso": "DNK"
    },
    {
        "id": 489,
        "name": "Pollepel Island",
        "location": {
            "lat": 41.455314,
            "lng": -73.98887
        },
        "iso": "USA"
    },
    {
        "id": 490,
        "name": "Hadleigh Castle",
        "location": {
            "lat": 51.5439,
            "lng": 0.6088
        },
        "iso": "GBR"
    },
    {
        "id": 491,
        "name": "Auckland Castle",
        "location": {
            "lat": 54.6664,
            "lng": -1.6702
        },
        "iso": "GBR"
    },
    {
        "id": 492,
        "name": "Nelahozeves",
        "location": {
            "lat": 50.26666667,
            "lng": 14.3
        },
        "iso": "CZE"
    },
    {
        "id": 493,
        "name": "Frederiksborg Castle",
        "location": {
            "lat": 55.935,
            "lng": 12.30083333
        },
        "iso": "DNK"
    },
    {
        "id": 494,
        "name": "Castle Frank station",
        "location": {
            "lat": 43.67361111,
            "lng": -79.36888889
        },
        "iso": "CAN"
    },
    {
        "id": 495,
        "name": "Baynard's Castle",
        "location": {
            "lat": 51.51138889,
            "lng": -0.1
        },
        "iso": "GBR"
    },
    {
        "id": 496,
        "name": "Castle Donington",
        "location": {
            "lat": 52.8444,
            "lng": -1.3377
        },
        "iso": "GBR"
    },
    {
        "id": 497,
        "name": "Liechtenstein Castle",
        "location": {
            "lat": 48.0925,
            "lng": 16.27
        },
        "iso": "AUT"
    },
    {
        "id": 498,
        "name": "Gentinnes",
        "location": {
            "lat": 50.58333333,
            "lng": 4.6
        },
        "iso": "BEL"
    },
    {
        "id": 499,
        "name": "Wick, Caithness",
        "location": {
            "lat": 58.454,
            "lng": -3.089
        },
        "iso": "unknown"
    },
    {
        "id": 500,
        "name": "Sandal Castle",
        "location": {
            "lat": 53.658889,
            "lng": -1.491111
        },
        "iso": "GBR"
    },
    {
        "id": 501,
        "name": "Raby Castle",
        "location": {
            "lat": 54.59083333,
            "lng": -1.80194444
        },
        "iso": "GBR"
    },
    {
        "id": 502,
        "name": "Maruoka Castle",
        "location": {
            "lat": 36.152347,
            "lng": 136.272097
        },
        "iso": "JPN"
    },
    {
        "id": 503,
        "name": "Hedingham Castle",
        "location": {
            "lat": 51.9925,
            "lng": 0.60111111
        },
        "iso": "GBR"
    },
    {
        "id": 504,
        "name": "Mountsorrel",
        "location": {
            "lat": 52.7167,
            "lng": -1.15
        },
        "iso": "GBR"
    },
    {
        "id": 505,
        "name": "Kokura Castle",
        "location": {
            "lat": 33.884444,
            "lng": 130.874256
        },
        "iso": "JPN"
    },
    {
        "id": 506,
        "name": "Belvoir Fortress",
        "location": {
            "lat": 32.59555556,
            "lng": 35.52138889
        },
        "iso": "ISR"
    },
    {
        "id": 507,
        "name": "Bridgnorth Cliff Railway",
        "location": {
            "lat": 52.534,
            "lng": -2.417
        },
        "iso": "GBR"
    },
    {
        "id": 508,
        "name": "Pendennis Castle",
        "location": {
            "lat": 50.14722,
            "lng": -5.04777
        },
        "iso": "GBR"
    },
    {
        "id": 509,
        "name": "Powderham Castle",
        "location": {
            "lat": 50.64297222,
            "lng": -3.45997222
        },
        "iso": "GBR"
    },
    {
        "id": 510,
        "name": "Tregenna Castle",
        "location": {
            "lat": 50.20446,
            "lng": -5.47785
        },
        "iso": "GBR"
    },
    {
        "id": 511,
        "name": "Castle Hedingham",
        "location": {
            "lat": 51.991,
            "lng": 0.604
        },
        "iso": "GBR"
    },
    {
        "id": 512,
        "name": "Chepstow Castle",
        "location": {
            "lat": 51.643964,
            "lng": -2.675417
        },
        "iso": "GBR"
    },
    {
        "id": 513,
        "name": "Bodrum Castle",
        "location": {
            "lat": 37.03166667,
            "lng": 27.42944444
        },
        "iso": "TUR"
    },
    {
        "id": 514,
        "name": "Babak Fort",
        "location": {
            "lat": 38.8369,
            "lng": 46.9812
        },
        "iso": "IRN"
    },
    {
        "id": 515,
        "name": "Falak-ol-Aflak Castle",
        "location": {
            "lat": 33.4837,
            "lng": 48.3534
        },
        "iso": "IRN"
    },
    {
        "id": 516,
        "name": "Bratislava Castle",
        "location": {
            "lat": 48.14222222,
            "lng": 17.1
        },
        "iso": "SVK"
    },
    {
        "id": 517,
        "name": "Rowland's Castle",
        "location": {
            "lat": 50.89115,
            "lng": -0.96006
        },
        "iso": "GBR"
    },
    {
        "id": 518,
        "name": "Scargill, County Durham",
        "location": {
            "lat": 54.49125,
            "lng": -1.92279
        },
        "iso": "GBR"
    },
    {
        "id": 519,
        "name": "Castle Eden",
        "location": {
            "lat": 54.7361,
            "lng": -1.3509
        },
        "iso": "GBR"
    },
    {
        "id": 520,
        "name": "Kanazawa Castle",
        "location": {
            "lat": 36.564317,
            "lng": 136.659228
        },
        "iso": "JPN"
    },
    {
        "id": 521,
        "name": "Lincoln Castle",
        "location": {
            "lat": 53.23529,
            "lng": -0.54095
        },
        "iso": "GBR"
    },
    {
        "id": 522,
        "name": "Rougemont Castle",
        "location": {
            "lat": 50.72567,
            "lng": -3.53006
        },
        "iso": "GBR"
    },
    {
        "id": 523,
        "name": "Opočno Castle",
        "location": {
            "lat": 50.26486111,
            "lng": 16.11558333
        },
        "iso": "CZE"
    },
    {
        "id": 524,
        "name": "Searles Castle (New Hampshire)",
        "location": {
            "lat": 42.81222222,
            "lng": -71.26583333
        },
        "iso": "USA"
    },
    {
        "id": 525,
        "name": "Elmina Castle",
        "location": {
            "lat": 5.0826,
            "lng": -1.3481
        },
        "iso": "GHA"
    },
    {
        "id": 526,
        "name": "Castlegregory",
        "location": {
            "lat": 52.255549,
            "lng": -10.02099
        },
        "iso": "unknown"
    },
    {
        "id": 527,
        "name": "Hohenschwangau Castle",
        "location": {
            "lat": 47.55555556,
            "lng": 10.73611111
        },
        "iso": "AUT"
    },
    {
        "id": 528,
        "name": "Liddington Castle",
        "location": {
            "lat": 51.51584,
            "lng": -1.7002
        },
        "iso": "GBR"
    },